{
"type": "FeatureCollection",
"name": "Public_Schools",
"crs": { "type": "name", "properties": { "name": "urn:ogc:def:crs:OGC:1.3:CRS84" } },
"features": [
{ "type": "Feature", "properties": { "OBJECTID": 1, "TYPE": "Option High School", "SCHOOL": "CLEVELAND HIGH SCHOOL", "ADDRESS": "5511 15th Ave S", "SE_ANNO_CAD_DATA": null, "NAME": "Cleveland", "GRADE": "9-12", "CITY": "Seattle", "ZIP": "98108", "PHONE": "(206)252-7800", "WEBSITE": "http://clevelandhs.seattleschools.org/", "XCOORD": -122.31391191, "YCOORD": 47.55237206, "SITE_USE": "Active", "PRJ_ENRLLMNT": null }, "geometry": { "type": "Point", "coordinates": [ -122.313911912493623, 47.552372061642942 ] } },
{ "type": "Feature", "properties": { "OBJECTID": 2, "TYPE": "High School", "SCHOOL": "GARFIELD HIGH SCHOOL", "ADDRESS": "400 23rd Ave", "SE_ANNO_CAD_DATA": null, "NAME": "Garfield", "GRADE": "9-12", "CITY": "Seattle", "ZIP": "98122", "PHONE": "(206)252-2270", "WEBSITE": "http://garfieldhs.seattleschools.org/", "XCOORD": -122.30190469, "YCOORD": 47.60541951, "SITE_USE": "Active", "PRJ_ENRLLMNT": null }, "geometry": { "type": "Point", "coordinates": [ -122.30190468822822, 47.605419513044005 ] } },
{ "type": "Feature", "properties": { "OBJECTID": 3, "TYPE": "Option Elementary", "SCHOOL": "SOUTH SHORE SCHOOL", "ADDRESS": "4800 S Henderson St", "SE_ANNO_CAD_DATA": null, "NAME": "South Shore K-8", "GRADE": "K-8", "CITY": "Seattle", "ZIP": "98118", "PHONE": "(206)252-7600", "WEBSITE": "http://southshorek8.seattleschools.org/", "XCOORD": -122.27200912000001, "YCOORD": 47.52374295, "SITE_USE": "Active", "PRJ_ENRLLMNT": null }, "geometry": { "type": "Point", "coordinates": [ -122.272009121328978, 47.523742947899436 ] } },
{ "type": "Feature", "properties": { "OBJECTID": 4, "TYPE": "Elementary", "SCHOOL": "LAURELHURST ELEM", "ADDRESS": "4530 46th Ave NE", "SE_ANNO_CAD_DATA": null, "NAME": "Laurelhurst", "GRADE": "K-5", "CITY": "Seattle", "ZIP": "98105", "PHONE": "(206)252-5400", "WEBSITE": "http://laurelhurstes.seattleschools.org/", "XCOORD": -122.27796307, "YCOORD": 47.66219804, "SITE_USE": "Active", "PRJ_ENRLLMNT": null }, "geometry": { "type": "Point", "coordinates": [ -122.277963074234151, 47.662198034317896 ] } },
{ "type": "Feature", "properties": { "OBJECTID": 5, "TYPE": "Middle School", "SCHOOL": "DENNY MIDDLE SCHOOL", "ADDRESS": "2601 SW Kenyon St", "SE_ANNO_CAD_DATA": null, "NAME": "Denny Int'l", "GRADE": "6-8", "CITY": "Seattle", "ZIP": "98126", "PHONE": "(206)252-9000", "WEBSITE": "http://dennyms.seattleschools.org/", "XCOORD": -122.36604153, "YCOORD": 47.53165396, "SITE_USE": "Active", "PRJ_ENRLLMNT": null }, "geometry": { "type": "Point", "coordinates": [ -122.36604153075082, 47.531653958068382 ] } },
{ "type": "Feature", "properties": { "OBJECTID": 6, "TYPE": "Elementary", "SCHOOL": "DANIEL BAGLEY ELEM", "ADDRESS": "7821 Stone Ave N", "SE_ANNO_CAD_DATA": null, "NAME": "Daniel Bagley", "GRADE": "K-5", "CITY": "Seattle", "ZIP": "98103", "PHONE": "(206)252-5110", "WEBSITE": "https://bagleyes.seattleschools.org/", "XCOORD": -122.34230487000001, "YCOORD": 47.68635707, "SITE_USE": "Active", "PRJ_ENRLLMNT": null }, "geometry": { "type": "Point", "coordinates": [ -122.342304871585455, 47.686357066232432 ] } },
{ "type": "Feature", "properties": { "OBJECTID": 7, "TYPE": "Elementary", "SCHOOL": "CATHARINE BLAINE", "ADDRESS": "2550 34th Ave W", "SE_ANNO_CAD_DATA": null, "NAME": "Catharine Blaine K-8", "GRADE": "K-8", "CITY": "Seattle", "ZIP": "98199", "PHONE": "(206)252-1920", "WEBSITE": "http://blainek8.seattleschools.org/", "XCOORD": -122.39926243, "YCOORD": 47.64225736, "SITE_USE": "Active", "PRJ_ENRLLMNT": null }, "geometry": { "type": "Point", "coordinates": [ -122.399262430612396, 47.64225735722227 ] } },
{ "type": "Feature", "properties": { "OBJECTID": 8, "TYPE": "NonStandard", "SCHOOL": "QUEEN ANNE GYM", "ADDRESS": "1431 2nd Ave N", "SE_ANNO_CAD_DATA": null, "NAME": "Queen Anne Gym", "GRADE": null, "CITY": "Seattle", "ZIP": "98109", "PHONE": null, "WEBSITE": null, "XCOORD": -122.35326522, "YCOORD": 47.63202275, "SITE_USE": "Active", "PRJ_ENRLLMNT": null }, "geometry": { "type": "Point", "coordinates": [ -122.353265218350501, 47.632022747314181 ] } },
{ "type": "Feature", "properties": { "OBJECTID": 11, "TYPE": "Elementary", "SCHOOL": "STEVENS ELEM", "ADDRESS": "1242 18th Ave E", "SE_ANNO_CAD_DATA": null, "NAME": "Stevens", "GRADE": "K-5", "CITY": "Seattle", "ZIP": "98112", "PHONE": "(206)252-3400", "WEBSITE": "http://stevenses.seattleschools.org/", "XCOORD": -122.30786488, "YCOORD": 47.63145623, "SITE_USE": "Active", "PRJ_ENRLLMNT": null }, "geometry": { "type": "Point", "coordinates": [ -122.307864884618255, 47.631456229918442 ] } },
{ "type": "Feature", "properties": { "OBJECTID": 12, "TYPE": "Elementary", "SCHOOL": "SAND POINT BLDG", "ADDRESS": "6208 60th Ave NE", "SE_ANNO_CAD_DATA": null, "NAME": "Sand Point", "GRADE": "K-5", "CITY": "Seattle", "ZIP": "98115", "PHONE": "(206)252-4640", "WEBSITE": "http://sandpointes.seattleschools.org/", "XCOORD": -122.26293322, "YCOORD": 47.67365155, "SITE_USE": "Active", "PRJ_ENRLLMNT": null }, "geometry": { "type": "Point", "coordinates": [ -122.262933222156803, 47.673651548343116 ] } },
{ "type": "Feature", "properties": { "OBJECTID": 14, "TYPE": "Elementary", "SCHOOL": "MAPLE ELEM", "ADDRESS": "4925 Corson Ave S", "SE_ANNO_CAD_DATA": null, "NAME": "Maple", "GRADE": "K-5", "CITY": "Seattle", "ZIP": "98108", "PHONE": "(206)252-8310", "WEBSITE": "http://maplees.seattleschools.org/", "XCOORD": -122.31889888000001, "YCOORD": 47.55812571, "SITE_USE": "Active", "PRJ_ENRLLMNT": null }, "geometry": { "type": "Point", "coordinates": [ -122.318898884674297, 47.558125712577052 ] } },
{ "type": "Feature", "properties": { "OBJECTID": 15, "TYPE": "High School", "SCHOOL": "INGRAHAM HIGH SCHOOL", "ADDRESS": "1819 N 135th St", "SE_ANNO_CAD_DATA": null, "NAME": "Ingraham Int'l", "GRADE": "9-12", "CITY": "Seattle", "ZIP": "98133", "PHONE": "(206)252-3880", "WEBSITE": "http://ingrahamhs.seattleschools.org/", "XCOORD": -122.33683813, "YCOORD": 47.72569939, "SITE_USE": "Active", "PRJ_ENRLLMNT": null }, "geometry": { "type": "Point", "coordinates": [ -122.33683812607886, 47.725699392815606 ] } },
{ "type": "Feature", "properties": { "OBJECTID": 16, "TYPE": "Middle School", "SCHOOL": "AKI KUROSE", "ADDRESS": "3928 S Graham St", "SE_ANNO_CAD_DATA": null, "NAME": "Aki Kurose", "GRADE": "6-8", "CITY": "Seattle", "ZIP": "98118", "PHONE": "(206)252-7700", "WEBSITE": "http://kurosems.seattleschools.org/", "XCOORD": -122.28198038, "YCOORD": 47.54632186, "SITE_USE": "Active", "PRJ_ENRLLMNT": null }, "geometry": { "type": "Point", "coordinates": [ -122.28198038188853, 47.546321860749558 ] } },
{ "type": "Feature", "properties": { "OBJECTID": 18, "TYPE": "Option Elementary", "SCHOOL": "New Bldg", "ADDRESS": "7712 40th Ave NE", "SE_ANNO_CAD_DATA": null, "NAME": "Thornton Creek", "GRADE": "K-5", "CITY": "Seattle", "ZIP": "98115", "PHONE": "(206)252-5300", "WEBSITE": "http://thorntoncreekes.seattleschools.org/", "XCOORD": -122.28461899, "YCOORD": 47.68528409, "SITE_USE": "Active", "PRJ_ENRLLMNT": null }, "geometry": { "type": "Point", "coordinates": [ -122.284618986948544, 47.685284092529095 ] } },
{ "type": "Feature", "properties": { "OBJECTID": 19, "TYPE": "High School", "SCHOOL": "FRANKLIN HIGH SCHOOL", "ADDRESS": "3013 S Mt Baker Blvd", "SE_ANNO_CAD_DATA": null, "NAME": "Franklin", "GRADE": "9-12", "CITY": "Seattle", "ZIP": "98144", "PHONE": "(206)252-6150", "WEBSITE": "http://franklinhs.seattleschools.org/", "XCOORD": -122.2936464, "YCOORD": 47.57588767, "SITE_USE": "Active", "PRJ_ENRLLMNT": null }, "geometry": { "type": "Point", "coordinates": [ -122.293646399301423, 47.575887671201073 ] } },
{ "type": "Feature", "properties": { "OBJECTID": 20, "TYPE": "Elementary", "SCHOOL": "NORTHGATE ELEM", "ADDRESS": "11725 1st Ave NE", "SE_ANNO_CAD_DATA": null, "NAME": "Northgate", "GRADE": "K-5", "CITY": "Seattle", "ZIP": "98125", "PHONE": "(206)252-4180", "WEBSITE": "http://northgatees.seattleschools.org/", "XCOORD": -122.32958505000001, "YCOORD": 47.71486716, "SITE_USE": "Active", "PRJ_ENRLLMNT": null }, "geometry": { "type": "Point", "coordinates": [ -122.329585046240894, 47.714867163660067 ] } },
{ "type": "Feature", "properties": { "OBJECTID": 21, "TYPE": "Option High School", "SCHOOL": "SOUTH LAKE HIGH SCHOOL", "ADDRESS": "8601 Rainier Ave S", "SE_ANNO_CAD_DATA": null, "NAME": "Sugiyama", "GRADE": "9-12", "CITY": "Seattle", "ZIP": "98118", "PHONE": "(206)252-6600", "WEBSITE": "https://sugiyamahs.seattleschools.org/", "XCOORD": -122.27091963, "YCOORD": 47.52526458, "SITE_USE": "Active", "PRJ_ENRLLMNT": null }, "geometry": { "type": "Point", "coordinates": [ -122.270919626841035, 47.525264577318922 ] } },
{ "type": "Feature", "properties": { "OBJECTID": 22, "TYPE": "Elementary", "SCHOOL": "GREENWOOD ELEM", "ADDRESS": "144 NW 80th St", "SE_ANNO_CAD_DATA": null, "NAME": "Greenwood", "GRADE": "K-5", "CITY": "Seattle", "ZIP": "98117", "PHONE": "(206)252-1400", "WEBSITE": "http://greenwoodes.seattleschools.org/", "XCOORD": -122.3599603, "YCOORD": 47.6872539, "SITE_USE": "Active", "PRJ_ENRLLMNT": null }, "geometry": { "type": "Point", "coordinates": [ -122.359960300450879, 47.687253894096585 ] } },
{ "type": "Feature", "properties": { "OBJECTID": 23, "TYPE": "Option Elementary", "SCHOOL": "CEDAR PARK BLDG", "ADDRESS": "3737 NE 135th St", "SE_ANNO_CAD_DATA": null, "NAME": "Cedar Park", "GRADE": "K-5", "CITY": "Seattle", "ZIP": "98125", "PHONE": "(206)252-4300", "WEBSITE": "http://cedarparkes.seattleschools.org/", "XCOORD": -122.2875157, "YCOORD": 47.72580837, "SITE_USE": "Active", "PRJ_ENRLLMNT": null }, "geometry": { "type": "Point", "coordinates": [ -122.287515702370897, 47.725808369932658 ] } },
{ "type": "Feature", "properties": { "OBJECTID": 24, "TYPE": "Elementary", "SCHOOL": "GRAHAM HILL ELEM", "ADDRESS": "5149 S Graham St", "SE_ANNO_CAD_DATA": null, "NAME": "Graham Hill", "GRADE": "K-5", "CITY": "Seattle", "ZIP": "98118", "PHONE": "(206)252-7140", "WEBSITE": "http://grahamhilles.seattleschools.org/", "XCOORD": -122.26853425, "YCOORD": 47.54575731, "SITE_USE": "Active", "PRJ_ENRLLMNT": null }, "geometry": { "type": "Point", "coordinates": [ -122.268534249036293, 47.545757309958013 ] } },
{ "type": "Feature", "properties": { "OBJECTID": 25, "TYPE": "Elementary", "SCHOOL": "HUGHES", "ADDRESS": "7740 34th Ave SW", "SE_ANNO_CAD_DATA": null, "NAME": "Roxhill - Interim", "GRADE": "K-5", "CITY": "Seattle", "ZIP": "98126", "PHONE": "(206)252-9570", "WEBSITE": "http://roxhilles.seattleschools.org/", "XCOORD": -122.37492742000001, "YCOORD": 47.53283766, "SITE_USE": "Interim", "PRJ_ENRLLMNT": null }, "geometry": { "type": "Point", "coordinates": [ -122.374927418130284, 47.532837659184963 ] } },
{ "type": "Feature", "properties": { "OBJECTID": 26, "TYPE": "Option Elementary", "SCHOOL": "LATONA ELEM", "ADDRESS": "4057 5th Ave NE", "SE_ANNO_CAD_DATA": null, "NAME": "John Stanford Int'l", "GRADE": "K-5", "CITY": "Seattle", "ZIP": "98105", "PHONE": "(206)252-6080", "WEBSITE": "http://stanfordes.seattleschools.org/", "XCOORD": -122.32405187000001, "YCOORD": 47.65752826, "SITE_USE": "Active", "PRJ_ENRLLMNT": null }, "geometry": { "type": "Point", "coordinates": [ -122.324051869420387, 47.657528255504559 ] } },
{ "type": "Feature", "properties": { "OBJECTID": 27, "TYPE": "Elementary", "SCHOOL": "LESCHI ELEM", "ADDRESS": "135 32nd Ave", "SE_ANNO_CAD_DATA": null, "NAME": "Leschi", "GRADE": "K-5", "CITY": "Seattle", "ZIP": "98122", "PHONE": "(206)252-2950", "WEBSITE": "http://leschies.seattleschools.org/", "XCOORD": -122.29181363, "YCOORD": 47.60210319, "SITE_USE": "Active", "PRJ_ENRLLMNT": null }, "geometry": { "type": "Point", "coordinates": [ -122.291813625457905, 47.602103191534269 ] } },
{ "type": "Feature", "properties": { "OBJECTID": 28, "TYPE": "Elementary", "SCHOOL": "LOWELL ELEM", "ADDRESS": "1058 E Mercer St", "SE_ANNO_CAD_DATA": null, "NAME": "Lowell", "GRADE": "K-5", "CITY": "Seattle", "ZIP": "98102", "PHONE": "(206)252-3020", "WEBSITE": "http://lowelles.seattleschools.org/", "XCOORD": -122.31837892, "YCOORD": 47.62442343, "SITE_USE": "Active", "PRJ_ENRLLMNT": null }, "geometry": { "type": "Point", "coordinates": [ -122.318378915743921, 47.624423424162728 ] } },
{ "type": "Feature", "properties": { "OBJECTID": 29, "TYPE": "Middle School", "SCHOOL": "MERCER MIDDLE SCHOOL", "ADDRESS": "1600 S Columbian Way", "SE_ANNO_CAD_DATA": null, "NAME": "Mercer Int'l", "GRADE": "6-8", "CITY": "Seattle", "ZIP": "98108", "PHONE": "(206)252-8000", "WEBSITE": "http://mercerms.seattleschools.org/", "XCOORD": -122.31208319, "YCOORD": 47.56413274, "SITE_USE": "Active", "PRJ_ENRLLMNT": null }, "geometry": { "type": "Point", "coordinates": [ -122.312083193351867, 47.564132743486354 ] } },
{ "type": "Feature", "properties": { "OBJECTID": 30, "TYPE": "Service School", "SCHOOL": "COLUMBIA BLDG/ORCA", "ADDRESS": "3528 S Ferdinand St", "SE_ANNO_CAD_DATA": null, "NAME": "Interagency at Columbia School", "GRADE": "9-12", "CITY": "Seattle", "ZIP": "98118", "PHONE": "(206)743-3930", "WEBSITE": "http://interagency.seattleschools.org/", "XCOORD": -122.28711552, "YCOORD": 47.55817903, "SITE_USE": "Active", "PRJ_ENRLLMNT": null }, "geometry": { "type": "Point", "coordinates": [ -122.287115517700371, 47.558179024876644 ] } },
{ "type": "Feature", "properties": { "OBJECTID": 31, "TYPE": "Elementary", "SCHOOL": "B F DAY ELEM", "ADDRESS": "3921 Linden Ave N", "SE_ANNO_CAD_DATA": null, "NAME": "B.F. Day", "GRADE": "K-5", "CITY": "Seattle", "ZIP": "98103", "PHONE": "(206)252-6010", "WEBSITE": "http://dayes.seattleschools.org/", "XCOORD": -122.34912374, "YCOORD": 47.65463546, "SITE_USE": "Active", "PRJ_ENRLLMNT": null }, "geometry": { "type": "Point", "coordinates": [ -122.349123735788012, 47.654635460261375 ] } },
{ "type": "Feature", "properties": { "OBJECTID": 32, "TYPE": "Elementary", "SCHOOL": "EMERSON ELEM", "ADDRESS": "9709 60th Ave S", "SE_ANNO_CAD_DATA": null, "NAME": "Emerson", "GRADE": "K-5", "CITY": "Seattle", "ZIP": "98118", "PHONE": "(206)252-7100", "WEBSITE": "http://emersones.seattleschools.org/", "XCOORD": -122.25863615, "YCOORD": 47.51482047, "SITE_USE": "Active", "PRJ_ENRLLMNT": null }, "geometry": { "type": "Point", "coordinates": [ -122.258636146463317, 47.514820465441616 ] } },
{ "type": "Feature", "properties": { "OBJECTID": 33, "TYPE": "Middle School", "SCHOOL": "ECKSTEIN MIDDLE SCHOOL", "ADDRESS": "3003 NE 75th St", "SE_ANNO_CAD_DATA": null, "NAME": "Eckstein", "GRADE": "6-8", "CITY": "Seattle", "ZIP": "98115", "PHONE": "(206)252-5010", "WEBSITE": "http://ecksteinms.seattleschools.org/", "XCOORD": -122.29498266, "YCOORD": 47.68252011, "SITE_USE": "Active", "PRJ_ENRLLMNT": null }, "geometry": { "type": "Point", "coordinates": [ -122.294982661746673, 47.682520105628264 ] } },
{ "type": "Feature", "properties": { "OBJECTID": 34, "TYPE": "Middle School", "SCHOOL": "JANE ADDAMS BUILDING", "ADDRESS": "11051 34th Ave NE", "SE_ANNO_CAD_DATA": null, "NAME": "Jane Addams", "GRADE": "6-8", "CITY": "Seattle", "ZIP": "98125", "PHONE": "(206)252-4500", "WEBSITE": "http://addamsms.seattleschools.org/", "XCOORD": -122.29300902, "YCOORD": 47.70994486, "SITE_USE": "Active", "PRJ_ENRLLMNT": null }, "geometry": { "type": "Point", "coordinates": [ -122.293009024933781, 47.709944861847219 ] } },
{ "type": "Feature", "properties": { "OBJECTID": 35, "TYPE": "Middle School", "SCHOOL": "WHITMAN MIDDLE SCHOOL", "ADDRESS": "9201 15th Ave NW", "SE_ANNO_CAD_DATA": null, "NAME": "Whitman", "GRADE": "6-8", "CITY": "Seattle", "ZIP": "98117", "PHONE": "(206)252-1200", "WEBSITE": "http://whitmanms.seattleschools.org/", "XCOORD": -122.37760192, "YCOORD": 47.69675145, "SITE_USE": "Active", "PRJ_ENRLLMNT": null }, "geometry": { "type": "Point", "coordinates": [ -122.377601923085848, 47.696751451416937 ] } },
{ "type": "Feature", "properties": { "OBJECTID": 36, "TYPE": "Elementary", "SCHOOL": "WING LUKE ELEM", "ADDRESS": "3701 S Kenyon St", "SE_ANNO_CAD_DATA": null, "NAME": "Wing Luke", "GRADE": "K-5", "CITY": "Seattle", "ZIP": "98118", "PHONE": "(206)252-7630", "WEBSITE": "https://lukees.seattleschools.org/", "XCOORD": -122.28490601, "YCOORD": 47.53073934, "SITE_USE": "Active", "PRJ_ENRLLMNT": null }, "geometry": { "type": "Point", "coordinates": [ -122.284906008452936, 47.53073934327535 ] } },
{ "type": "Feature", "properties": { "OBJECTID": 37, "TYPE": "Elementary", "SCHOOL": "NORTH BEACH ELEM", "ADDRESS": "9018 24th Ave NW", "SE_ANNO_CAD_DATA": null, "NAME": "North Beach", "GRADE": "K-5", "CITY": "Seattle", "ZIP": "98117", "PHONE": "(206)252-1510", "WEBSITE": "http://northbeaches.seattleschools.org/", "XCOORD": -122.3870355, "YCOORD": 47.69497451, "SITE_USE": "Active", "PRJ_ENRLLMNT": null }, "geometry": { "type": "Point", "coordinates": [ -122.387035500262343, 47.694974510719831 ] } },
{ "type": "Feature", "properties": { "OBJECTID": 38, "TYPE": "Elementary", "SCHOOL": "DEARBORN PARK ELEM", "ADDRESS": "2820 S Orcas St", "SE_ANNO_CAD_DATA": null, "NAME": "Dearborn Park Int'l", "GRADE": "K-5", "CITY": "Seattle", "ZIP": "98108", "PHONE": "(206)252-6930", "WEBSITE": "http://dearbornes.seattleschools.org/", "XCOORD": -122.29628698, "YCOORD": 47.55226236, "SITE_USE": "Active", "PRJ_ENRLLMNT": null }, "geometry": { "type": "Point", "coordinates": [ -122.29628697987927, 47.552262359087017 ] } },
{ "type": "Feature", "properties": { "OBJECTID": 39, "TYPE": "Elementary", "SCHOOL": "BEACON HILL ELEM", "ADDRESS": "2025 14th Ave. S", "SE_ANNO_CAD_DATA": null, "NAME": "Beacon Hill Int'l", "GRADE": "K-5", "CITY": "Seattle", "ZIP": "98144", "PHONE": "(206) 252-2700", "WEBSITE": "http://beaconhilles.seattleschools.org/", "XCOORD": -122.31510489, "YCOORD": 47.58546921, "SITE_USE": "Active", "PRJ_ENRLLMNT": null }, "geometry": { "type": "Point", "coordinates": [ -122.315104889303271, 47.585469204873363 ] } },
{ "type": "Feature", "properties": { "OBJECTID": 40, "TYPE": "Service School", "SCHOOL": "VAN ASSELT ELEM", "ADDRESS": "7201 Beacon Ave S", "SE_ANNO_CAD_DATA": null, "NAME": "Early Learning Center", "GRADE": "PK", "CITY": "Seattle", "ZIP": "98108", "PHONE": "(206)252-9930", "WEBSITE": "https://www.seattleschools.org/departments/early-learning/", "XCOORD": -122.29625343, "YCOORD": 47.53832758, "SITE_USE": "Active", "PRJ_ENRLLMNT": null }, "geometry": { "type": "Point", "coordinates": [ -122.296253426251084, 47.538327580141129 ] } },
{ "type": "Feature", "properties": { "OBJECTID": 41, "TYPE": "Middle School", "SCHOOL": "HAMILTON MIDDLE SCHOOL", "ADDRESS": "1610 N 41st St", "SE_ANNO_CAD_DATA": null, "NAME": "Hamilton Int'l", "GRADE": "6-8", "CITY": "Seattle", "ZIP": "98103", "PHONE": "(206)252-5810", "WEBSITE": "http://hamiltonms.seattleschools.org/", "XCOORD": -122.33802754, "YCOORD": 47.65708003, "SITE_USE": "Active", "PRJ_ENRLLMNT": null }, "geometry": { "type": "Point", "coordinates": [ -122.338027536628147, 47.657080030264531 ] } },
{ "type": "Feature", "properties": { "OBJECTID": 42, "TYPE": "High School", "SCHOOL": "BALLARD HIGH SCHOOL", "ADDRESS": "1418 NW 65th St", "SE_ANNO_CAD_DATA": null, "NAME": "Ballard", "GRADE": "9-12", "CITY": "Seattle", "ZIP": "98117", "PHONE": "(206)252-1000", "WEBSITE": "http://ballardhs.seattleschools.org/", "XCOORD": -122.37488867, "YCOORD": 47.67661077, "SITE_USE": "Active", "PRJ_ENRLLMNT": null }, "geometry": { "type": "Point", "coordinates": [ -122.374888668664838, 47.676610768054125 ] } },
{ "type": "Feature", "properties": { "OBJECTID": 43, "TYPE": "High School", "SCHOOL": "NATHAN HALE HIGH SCHOOL", "ADDRESS": "10750 30th Ave NE", "SE_ANNO_CAD_DATA": null, "NAME": "Nathan Hale", "GRADE": "9-12", "CITY": "Seattle", "ZIP": "98125", "PHONE": "(206)252-3680", "WEBSITE": "http://halehs.seattleschools.org/", "XCOORD": -122.29453073000001, "YCOORD": 47.70762861, "SITE_USE": "Active", "PRJ_ENRLLMNT": null }, "geometry": { "type": "Point", "coordinates": [ -122.294530733277725, 47.707628608319183 ] } },
{ "type": "Feature", "properties": { "OBJECTID": 44, "TYPE": "Option Elementary", "SCHOOL": "OLD HAY BLDG", "ADDRESS": "2100 4th Ave N", "SE_ANNO_CAD_DATA": null, "NAME": "Queen Anne", "GRADE": "K-5", "CITY": "Seattle", "ZIP": "98109", "PHONE": "(206)252-2480", "WEBSITE": "https://queenannees.seattleschools.org/", "XCOORD": -122.34896919000001, "YCOORD": 47.63796374, "SITE_USE": "Active", "PRJ_ENRLLMNT": null }, "geometry": { "type": "Point", "coordinates": [ -122.348969192218647, 47.637963740264951 ] } },
{ "type": "Feature", "properties": { "OBJECTID": 46, "TYPE": "Option Elementary", "SCHOOL": "WILSON-PACIFIC", "ADDRESS": "1700 N 90th St", "SE_ANNO_CAD_DATA": null, "NAME": "Cascadia", "GRADE": "K-5", "CITY": "Seattle", "ZIP": "98103", "PHONE": "(206)252-5914", "WEBSITE": "http://cascadiaes.seattleschools.org/", "XCOORD": -122.33727404, "YCOORD": 47.69493869, "SITE_USE": "Active", "PRJ_ENRLLMNT": null }, "geometry": { "type": "Point", "coordinates": [ -122.337274039071517, 47.694938689547193 ] } },
{ "type": "Feature", "properties": { "OBJECTID": 47, "TYPE": "Service School", "SCHOOL": "MANN BLDG", "ADDRESS": "2410 E Cherry St", "SE_ANNO_CAD_DATA": null, "NAME": "Nova", "GRADE": "9-12", "CITY": "Seattle", "ZIP": "98122", "PHONE": "(206)252-3500", "WEBSITE": "http://novahs.seattleschools.org/", "XCOORD": -122.30092571, "YCOORD": 47.60842418, "SITE_USE": "Active", "PRJ_ENRLLMNT": null }, "geometry": { "type": "Point", "coordinates": [ -122.300925709863336, 47.608424175499408 ] } },
{ "type": "Feature", "properties": { "OBJECTID": 48, "TYPE": "Elementary", "SCHOOL": "DUNLAP ELEM", "ADDRESS": "4525 S Cloverdale St", "SE_ANNO_CAD_DATA": null, "NAME": "Dunlap", "GRADE": "K-5", "CITY": "Seattle", "ZIP": "98118", "PHONE": "(206)252-7000", "WEBSITE": "http://dunlapes.seattleschools.org/", "XCOORD": -122.27465565, "YCOORD": 47.52498919, "SITE_USE": "Active", "PRJ_ENRLLMNT": null }, "geometry": { "type": "Point", "coordinates": [ -122.27465565479055, 47.524989188994319 ] } },
{ "type": "Feature", "properties": { "OBJECTID": 49, "TYPE": "Elementary", "SCHOOL": "VAN ASSELT ELEM", "ADDRESS": "7201 Beacon Ave S", "SE_ANNO_CAD_DATA": null, "NAME": "Kimball - Interim", "GRADE": "K-5", "CITY": "Seattle", "ZIP": "98108", "PHONE": "(206)252-7280", "WEBSITE": "https://kimballes.seattleschools.org/", "XCOORD": -122.29625343, "YCOORD": 47.53832758, "SITE_USE": "Interim", "PRJ_ENRLLMNT": null }, "geometry": { "type": "Point", "coordinates": [ -122.296253426251084, 47.538327580141129 ] } },
{ "type": "Feature", "properties": { "OBJECTID": 50, "TYPE": "High School", "SCHOOL": "LINCOLN", "ADDRESS": "4400 Interlake Ave N", "SE_ANNO_CAD_DATA": null, "NAME": "Lincoln", "GRADE": "9-12", "CITY": "Seattle", "ZIP": "98103", "PHONE": "(206)413-2500", "WEBSITE": "https://lincolnhs.seattleschools.org/", "XCOORD": -122.33962245, "YCOORD": 47.65996178, "SITE_USE": "Active", "PRJ_ENRLLMNT": null }, "geometry": { "type": "Point", "coordinates": [ -122.339622449524484, 47.659961776744161 ] } },
{ "type": "Feature", "properties": { "OBJECTID": 51, "TYPE": "Elementary", "SCHOOL": "COLMAN SITE", "ADDRESS": "2401 S Irving St", "SE_ANNO_CAD_DATA": null, "NAME": "Thurgood Marshall", "GRADE": "K-5", "CITY": "Seattle", "ZIP": "98144", "PHONE": "(206)252-2800", "WEBSITE": "http://marshalles.seattleschools.org/", "XCOORD": -122.29984633, "YCOORD": 47.59095855, "SITE_USE": "Active", "PRJ_ENRLLMNT": null }, "geometry": { "type": "Point", "coordinates": [ -122.299846332198072, 47.590958548725091 ] } },
{ "type": "Feature", "properties": { "OBJECTID": 52, "TYPE": "Service School", "SCHOOL": "MINOR ELEM", "ADDRESS": "1700 E Union St", "SE_ANNO_CAD_DATA": null, "NAME": "Seattle World School", "GRADE": "6-12", "CITY": "Seattle", "ZIP": "98122", "PHONE": "(206)252-2200", "WEBSITE": "http://sws.seattleschools.org/", "XCOORD": -122.3092864, "YCOORD": 47.61337342, "SITE_USE": "Active", "PRJ_ENRLLMNT": null }, "geometry": { "type": "Point", "coordinates": [ -122.309286398387499, 47.613373419336227 ] } },
{ "type": "Feature", "properties": { "OBJECTID": 54, "TYPE": "Elementary", "SCHOOL": "BROADVIEW-THOMSON", "ADDRESS": "13052 Greenwood Ave N", "SE_ANNO_CAD_DATA": null, "NAME": "Broadview-Thomson K-8", "GRADE": "K-8", "CITY": "Seattle", "ZIP": "98133", "PHONE": "(206)252-4080", "WEBSITE": "http://broadviewk8.seattleschools.org/", "XCOORD": -122.35314867, "YCOORD": 47.72463111, "SITE_USE": "Active", "PRJ_ENRLLMNT": null }, "geometry": { "type": "Point", "coordinates": [ -122.353148668765485, 47.724631108013554 ] } },
{ "type": "Feature", "properties": { "OBJECTID": 55, "TYPE": "Elementary", "SCHOOL": "HAWTHORNE ELEM", "ADDRESS": "4100 39th Ave S", "SE_ANNO_CAD_DATA": null, "NAME": "Hawthorne", "GRADE": "K-5", "CITY": "Seattle", "ZIP": "98118", "PHONE": "(206)252-7210", "WEBSITE": "http://hawthornees.seattleschools.org/", "XCOORD": -122.28338622, "YCOORD": 47.56590518, "SITE_USE": "Active", "PRJ_ENRLLMNT": null }, "geometry": { "type": "Point", "coordinates": [ -122.283386223789563, 47.565905183779286 ] } },
{ "type": "Feature", "properties": { "OBJECTID": 56, "TYPE": "Elementary", "SCHOOL": "BRIGHTON ELEM", "ADDRESS": "6725 45th Ave S", "SE_ANNO_CAD_DATA": null, "NAME": "Martin Luther King Jr", "GRADE": "K-5", "CITY": "Seattle", "ZIP": "98118", "PHONE": "(206)252-6770", "WEBSITE": "http://kinges.seattleschools.org/", "XCOORD": -122.27691176, "YCOORD": 47.54174321, "SITE_USE": "Active", "PRJ_ENRLLMNT": null }, "geometry": { "type": "Point", "coordinates": [ -122.276911759731945, 47.541743206275349 ] } },
{ "type": "Feature", "properties": { "OBJECTID": 57, "TYPE": "Middle School", "SCHOOL": "WASHINGTON MIDDLE SCHOOL", "ADDRESS": "2101 S Jackson St", "SE_ANNO_CAD_DATA": null, "NAME": "Washington", "GRADE": "6-8", "CITY": "Seattle", "ZIP": "98144", "PHONE": "(206)252-2600", "WEBSITE": "http://washingtonms.seattleschools.org/", "XCOORD": -122.30414977, "YCOORD": 47.59795569, "SITE_USE": "Active", "PRJ_ENRLLMNT": null }, "geometry": { "type": "Point", "coordinates": [ -122.304149774153188, 47.597955686543614 ] } },
{ "type": "Feature", "properties": { "OBJECTID": 58, "TYPE": "Elementary", "SCHOOL": "JOHN MUIR ELEM", "ADDRESS": "3301 S Horton St", "SE_ANNO_CAD_DATA": null, "NAME": "John Muir", "GRADE": "K-5", "CITY": "Seattle", "ZIP": "98144", "PHONE": "(206)252-7400", "WEBSITE": "http://muires.seattleschools.org/", "XCOORD": -122.29057986, "YCOORD": 47.57324135, "SITE_USE": "Active", "PRJ_ENRLLMNT": null }, "geometry": { "type": "Point", "coordinates": [ -122.290579862136141, 47.57324134730414 ] } },
{ "type": "Feature", "properties": { "OBJECTID": 59, "TYPE": "Elementary", "SCHOOL": "CONCORD ELEM", "ADDRESS": "723 S Concord St.", "SE_ANNO_CAD_DATA": null, "NAME": "Concord Int'l", "GRADE": "K-5", "CITY": "Seattle", "ZIP": "98108", "PHONE": "(206) 252-8100", "WEBSITE": "http://concordes.seattleschools.org/", "XCOORD": -122.32469058, "YCOORD": 47.5236109, "SITE_USE": "Active", "PRJ_ENRLLMNT": null }, "geometry": { "type": "Point", "coordinates": [ -122.324690584151327, 47.523610901696486 ] } },
{ "type": "Feature", "properties": { "OBJECTID": 60, "TYPE": "Elementary", "SCHOOL": "RAINIER VIEW ELEM", "ADDRESS": "11650 Beacon Ave S", "SE_ANNO_CAD_DATA": null, "NAME": "Rainier View", "GRADE": "K-5", "CITY": "Seattle", "ZIP": "98178", "PHONE": "(206)252-6700", "WEBSITE": "http://rainierviewes.seattleschools.org/", "XCOORD": -122.26317206, "YCOORD": 47.49886332, "SITE_USE": "Active", "PRJ_ENRLLMNT": null }, "geometry": { "type": "Point", "coordinates": [ -122.263172064204483, 47.498863321283217 ] } },
{ "type": "Feature", "properties": { "OBJECTID": 61, "TYPE": "Elementary", "SCHOOL": "OLYMPIC VIEW ELEM", "ADDRESS": "504 NE 95th St", "SE_ANNO_CAD_DATA": null, "NAME": "Olympic View", "GRADE": "K-5", "CITY": "Seattle", "ZIP": "98115", "PHONE": "(206)252-5500", "WEBSITE": "http://olympicviewes.seattleschools.org/", "XCOORD": -122.32125787, "YCOORD": 47.69823172, "SITE_USE": "Active", "PRJ_ENRLLMNT": null }, "geometry": { "type": "Point", "coordinates": [ -122.321257870149722, 47.698231721030147 ] } },
{ "type": "Feature", "properties": { "OBJECTID": 62, "TYPE": "Elementary", "SCHOOL": "HIGHLAND PARK ELEM", "ADDRESS": "1012 SW Trenton St", "SE_ANNO_CAD_DATA": null, "NAME": "Highland Park", "GRADE": "K-5", "CITY": "Seattle", "ZIP": "98106", "PHONE": "(206)252-8240", "WEBSITE": "http://highlandparkes.seattleschools.org/", "XCOORD": -122.34827729, "YCOORD": 47.5251775, "SITE_USE": "Active", "PRJ_ENRLLMNT": null }, "geometry": { "type": "Point", "coordinates": [ -122.348277286993053, 47.525177494270892 ] } },
{ "type": "Feature", "properties": { "OBJECTID": 63, "TYPE": "Option Elementary", "SCHOOL": "BOREN BLDG", "ADDRESS": "5950 Delridge Way SW", "SE_ANNO_CAD_DATA": null, "NAME": "Boren STEM K-8", "GRADE": "K-8", "CITY": "Seattle", "ZIP": "98106", "PHONE": "(206)252-8450", "WEBSITE": "http://borenstemk8.seattleschools.org/", "XCOORD": -122.36214094, "YCOORD": 47.54861954, "SITE_USE": "Active", "PRJ_ENRLLMNT": null }, "geometry": { "type": "Point", "coordinates": [ -122.362140942013184, 47.548619534317019 ] } },
{ "type": "Feature", "properties": { "OBJECTID": 65, "TYPE": "Middle School", "SCHOOL": "MEANY MIDDLE SCHOOL (EAST)", "ADDRESS": "301 21st Ave E", "SE_ANNO_CAD_DATA": null, "NAME": "Meany", "GRADE": "6-8", "CITY": "Seattle", "ZIP": "98112", "PHONE": "(206)413-2100", "WEBSITE": "http://meanyms.seattleschools.org/", "XCOORD": -122.30524468, "YCOORD": 47.62160316, "SITE_USE": "Active", "PRJ_ENRLLMNT": null }, "geometry": { "type": "Point", "coordinates": [ -122.305244675906764, 47.621603154499098 ] } },
{ "type": "Feature", "properties": { "OBJECTID": 67, "TYPE": "Elementary", "SCHOOL": "ALKI ELEM", "ADDRESS": "3010 59th Ave SW", "SE_ANNO_CAD_DATA": null, "NAME": "Alki", "GRADE": "K-5", "CITY": "Seattle", "ZIP": "98116", "PHONE": "(206)252-9050", "WEBSITE": "http://alkies.seattleschools.org/", "XCOORD": -122.40782717, "YCOORD": 47.57714172, "SITE_USE": "Active", "PRJ_ENRLLMNT": null }, "geometry": { "type": "Point", "coordinates": [ -122.407827173679891, 47.5771417239526 ] } },
{ "type": "Feature", "properties": { "OBJECTID": 68, "TYPE": "Option Elementary", "SCHOOL": "MCDONALD BLDG", "ADDRESS": "144 NE 54th St", "SE_ANNO_CAD_DATA": null, "NAME": "McDonald Int'l", "GRADE": "K-5", "CITY": "Seattle", "ZIP": "98105", "PHONE": "206-743-3800", "WEBSITE": "http://mcdonaldes.seattleschools.org/", "XCOORD": -122.32659539, "YCOORD": 47.66827561, "SITE_USE": "Active", "PRJ_ENRLLMNT": null }, "geometry": { "type": "Point", "coordinates": [ -122.326595385470497, 47.66827560714998 ] } },
{ "type": "Feature", "properties": { "OBJECTID": 69, "TYPE": "High School", "SCHOOL": "SEALTH HIGH SCHOOL", "ADDRESS": "2600 SW Thistle St", "SE_ANNO_CAD_DATA": null, "NAME": "Chief Sealth Int'l", "GRADE": "9-12", "CITY": "Seattle", "ZIP": "98126", "PHONE": "(206)252-8550", "WEBSITE": "http://chiefsealthhs.seattleschools.org/", "XCOORD": -122.3661548, "YCOORD": 47.52863205, "SITE_USE": "Active", "PRJ_ENRLLMNT": null }, "geometry": { "type": "Point", "coordinates": [ -122.36615479880885, 47.528632050416462 ] } },
{ "type": "Feature", "properties": { "OBJECTID": 70, "TYPE": "Elementary", "SCHOOL": "JOHN MARSHALL", "ADDRESS": "520 NE Ravenna Blvd", "SE_ANNO_CAD_DATA": null, "NAME": "Viewlands - Interim", "GRADE": "K-5", "CITY": "Seattle", "ZIP": "98115", "PHONE": "(206)252-4400", "WEBSITE": "https://viewlandses.seattleschools.org/", "XCOORD": -122.32231535, "YCOORD": 47.67724814, "SITE_USE": "Interim", "PRJ_ENRLLMNT": null }, "geometry": { "type": "Point", "coordinates": [ -122.322315348241446, 47.677248142266805 ] } },
{ "type": "Feature", "properties": { "OBJECTID": 71, "TYPE": "Elementary", "SCHOOL": "LOYAL HEIGHTS", "ADDRESS": "7735 25th Ave NW", "SE_ANNO_CAD_DATA": null, "NAME": "Loyal Heights", "GRADE": "K-5", "CITY": "Seattle", "ZIP": "98117", "PHONE": "(206)252-6000", "WEBSITE": "http://loyalheightses.seattleschools.org/", "XCOORD": -122.38903556, "YCOORD": 47.68642983, "SITE_USE": "Active", "PRJ_ENRLLMNT": null }, "geometry": { "type": "Point", "coordinates": [ -122.389035555190702, 47.686429833902679 ] } },
{ "type": "Feature", "properties": { "OBJECTID": 72, "TYPE": "Elementary", "SCHOOL": "BRYANT ELEM", "ADDRESS": "3311 NE 60th St", "SE_ANNO_CAD_DATA": null, "NAME": "Bryant", "GRADE": "K-5", "CITY": "Seattle", "ZIP": "98115", "PHONE": "(206)252-5200", "WEBSITE": "http://bryantes.seattleschools.org/", "XCOORD": -122.29220552, "YCOORD": 47.67184194, "SITE_USE": "Active", "PRJ_ENRLLMNT": null }, "geometry": { "type": "Point", "coordinates": [ -122.292205523965848, 47.671841943098556 ] } },
{ "type": "Feature", "properties": { "OBJECTID": 73, "TYPE": "Elementary", "SCHOOL": "WEDGWOOD ELEM", "ADDRESS": "2720 NE 85th St", "SE_ANNO_CAD_DATA": null, "NAME": "Wedgwood", "GRADE": "K-5", "CITY": "Seattle", "ZIP": "98115", "PHONE": "(206)252-5670", "WEBSITE": "http://wedgwoodes.seattleschools.org/", "XCOORD": -122.29705382, "YCOORD": 47.69053805, "SITE_USE": "Active", "PRJ_ENRLLMNT": null }, "geometry": { "type": "Point", "coordinates": [ -122.297053816618785, 47.690538045542105 ] } },
{ "type": "Feature", "properties": { "OBJECTID": 74, "TYPE": "Elementary", "SCHOOL": "OLYMPIC HILLS ELEM", "ADDRESS": "13018 20th Ave NE", "SE_ANNO_CAD_DATA": null, "NAME": "Olympic Hills", "GRADE": "K-5", "CITY": "Seattle", "ZIP": "98125", "PHONE": "(206)413-2200", "WEBSITE": "http://olympichillses.seattleschools.org/", "XCOORD": -122.30675545, "YCOORD": 47.72368616, "SITE_USE": "Active", "PRJ_ENRLLMNT": null }, "geometry": { "type": "Point", "coordinates": [ -122.306755454102088, 47.723686163285066 ] } },
{ "type": "Feature", "properties": { "OBJECTID": 75, "TYPE": "Service School", "SCHOOL": "ROXHILL ELEM", "ADDRESS": "9430 30th Ave SW", "SE_ANNO_CAD_DATA": null, "NAME": "BRIDGES", "GRADE": null, "CITY": "Seattle", "ZIP": "98126", "PHONE": "(206)252-9330", "WEBSITE": "https://www.seattleschools.org/departments/special-education/18-21-transition/bridges/", "XCOORD": -122.37055804000001, "YCOORD": 47.51805292, "SITE_USE": "Active", "PRJ_ENRLLMNT": null }, "geometry": { "type": "Point", "coordinates": [ -122.370558043204383, 47.518052915975382 ] } },
{ "type": "Feature", "properties": { "OBJECTID": 76, "TYPE": "Elementary", "SCHOOL": "MONTLAKE ELEM", "ADDRESS": "2409 22nd Ave E", "SE_ANNO_CAD_DATA": null, "NAME": "Montlake", "GRADE": "K-5", "CITY": "Seattle", "ZIP": "98112", "PHONE": "(206)252-3300", "WEBSITE": "http://montlakees.seattleschools.org/", "XCOORD": -122.3042842, "YCOORD": 47.64063264, "SITE_USE": "Active", "PRJ_ENRLLMNT": null }, "geometry": { "type": "Point", "coordinates": [ -122.304284203182448, 47.640632637131866 ] } },
{ "type": "Feature", "properties": { "OBJECTID": 77, "TYPE": "Elementary", "SCHOOL": "WHITTIER ELEM", "ADDRESS": "1320 NW 75th St", "SE_ANNO_CAD_DATA": null, "NAME": "Whittier", "GRADE": "K-5", "CITY": "Seattle", "ZIP": "98117", "PHONE": "(206)252-1650", "WEBSITE": "http://whittieres.seattleschools.org/", "XCOORD": -122.37307538, "YCOORD": 47.68358982, "SITE_USE": "Active", "PRJ_ENRLLMNT": null }, "geometry": { "type": "Point", "coordinates": [ -122.373075379303046, 47.683589823126795 ] } },
{ "type": "Feature", "properties": { "OBJECTID": 78, "TYPE": "Elementary", "SCHOOL": "FAIRMOUNT PARK ELEM", "ADDRESS": "3800 SW Findlay St", "SE_ANNO_CAD_DATA": null, "NAME": "Fairmount Park", "GRADE": "K-5", "CITY": "Seattle", "ZIP": "98126", "PHONE": "(206)252-9300", "WEBSITE": "http://fairmountparkes.seattleschools.org/", "XCOORD": -122.38019123, "YCOORD": 47.5525732, "SITE_USE": "Active", "PRJ_ENRLLMNT": null }, "geometry": { "type": "Point", "coordinates": [ -122.380191232880094, 47.552573201351876 ] } },
{ "type": "Feature", "properties": { "OBJECTID": 80, "TYPE": "Option Elementary", "SCHOOL": "WEBSTER", "ADDRESS": "3015 NW 68th St", "SE_ANNO_CAD_DATA": null, "NAME": "Licton Springs K-8", "GRADE": "K-8", "CITY": "Seattle", "ZIP": "98117", "PHONE": "(206)743-3700", "WEBSITE": "https://lictonspringsk8.seattleschools.org/", "XCOORD": -122.396312, "YCOORD": 47.6776724, "SITE_USE": "Active", "PRJ_ENRLLMNT": null }, "geometry": { "type": "Point", "coordinates": [ -122.396312000384839, 47.677672401169296 ] } },
{ "type": "Feature", "properties": { "OBJECTID": 81, "TYPE": "Elementary", "SCHOOL": "GATZERT ELEM", "ADDRESS": "1301 E Yesler Way", "SE_ANNO_CAD_DATA": null, "NAME": "Bailey Gatzert", "GRADE": "K-5", "CITY": "Seattle", "ZIP": "98122", "PHONE": "(206)252-2810", "WEBSITE": "http://gatzertes.seattleschools.org/", "XCOORD": -122.31548472, "YCOORD": 47.60120053, "SITE_USE": "Active", "PRJ_ENRLLMNT": null }, "geometry": { "type": "Point", "coordinates": [ -122.315484720787325, 47.601200533424844 ] } },
{ "type": "Feature", "properties": { "OBJECTID": 82, "TYPE": "Elementary", "SCHOOL": "SACAJAWEA ELEM", "ADDRESS": "9501 20th Ave NE", "SE_ANNO_CAD_DATA": null, "NAME": "Sacajawea", "GRADE": "K-5", "CITY": "Seattle", "ZIP": "98115", "PHONE": "(206)252-5550", "WEBSITE": "http://sacajaweaes.seattleschools.org/", "XCOORD": -122.30747272000001, "YCOORD": 47.69844854, "SITE_USE": "Active", "PRJ_ENRLLMNT": null }, "geometry": { "type": "Point", "coordinates": [ -122.307472722842164, 47.698448543336724 ] } },
{ "type": "Feature", "properties": { "OBJECTID": 83, "TYPE": "Elementary", "SCHOOL": "GATEWOOD ELEM", "ADDRESS": "4320 SW Myrtle St", "SE_ANNO_CAD_DATA": null, "NAME": "Gatewood", "GRADE": "K-5", "CITY": "Seattle", "ZIP": "98136", "PHONE": "(206)252-9400", "WEBSITE": "http://gatewoodes.seattleschools.org/", "XCOORD": -122.38849822, "YCOORD": 47.54025089, "SITE_USE": "Active", "PRJ_ENRLLMNT": null }, "geometry": { "type": "Point", "coordinates": [ -122.388498218918656, 47.540250885774796 ] } },
{ "type": "Feature", "properties": { "OBJECTID": 84, "TYPE": "Elementary", "SCHOOL": "LAFAYETTE ELEM", "ADDRESS": "2645 California Ave SW", "SE_ANNO_CAD_DATA": null, "NAME": "Lafayette", "GRADE": "K-5", "CITY": "Seattle", "ZIP": "98116", "PHONE": "(206)252-9500", "WEBSITE": "http://lafayettees.seattleschools.org/", "XCOORD": -122.38723455, "YCOORD": 47.5794954, "SITE_USE": "Active", "PRJ_ENRLLMNT": null }, "geometry": { "type": "Point", "coordinates": [ -122.387234546427152, 47.579495400018963 ] } },
{ "type": "Feature", "properties": { "OBJECTID": 86, "TYPE": "Elementary", "SCHOOL": "MAGNOLIA", "ADDRESS": "2418 28th Ave W", "SE_ANNO_CAD_DATA": null, "NAME": "Magnolia", "GRADE": "K-5", "CITY": "Seattle", "ZIP": "98199", "PHONE": "(206)743-3800", "WEBSITE": "https://magnoliaes.seattleschools.org/", "XCOORD": -122.39262357, "YCOORD": 47.64060612, "SITE_USE": "Active", "PRJ_ENRLLMNT": null }, "geometry": { "type": "Point", "coordinates": [ -122.392623573052404, 47.640606118165714 ] } },
{ "type": "Feature", "properties": { "OBJECTID": 87, "TYPE": "Elementary", "SCHOOL": "COE ELEM", "ADDRESS": "2424 7th Ave W", "SE_ANNO_CAD_DATA": null, "NAME": "Coe", "GRADE": "K-5", "CITY": "Seattle", "ZIP": "98119", "PHONE": "(206)252-2000", "WEBSITE": "http://coees.seattleschools.org/", "XCOORD": -122.36559911000001, "YCOORD": 47.64051599, "SITE_USE": "Active", "PRJ_ENRLLMNT": null }, "geometry": { "type": "Point", "coordinates": [ -122.365599108119341, 47.640515986701843 ] } },
{ "type": "Feature", "properties": { "OBJECTID": 88, "TYPE": "Elementary", "SCHOOL": "JOHN ROGERS ELEM", "ADDRESS": "4030 NE 109th St", "SE_ANNO_CAD_DATA": null, "NAME": "John Rogers", "GRADE": "K-5", "CITY": "Seattle", "ZIP": "98125", "PHONE": "(206)252-4320", "WEBSITE": "http://rogerses.seattleschools.org/", "XCOORD": -122.28463373, "YCOORD": 47.70742644, "SITE_USE": "Active", "PRJ_ENRLLMNT": null }, "geometry": { "type": "Point", "coordinates": [ -122.284633730394503, 47.70742643437471 ] } },
{ "type": "Feature", "properties": { "OBJECTID": 89, "TYPE": "Middle School", "SCHOOL": "MADISON MIDDLE SCHOOL", "ADDRESS": "3429 45th Ave SW", "SE_ANNO_CAD_DATA": null, "NAME": "Madison", "GRADE": "6-8", "CITY": "Seattle", "ZIP": "98116", "PHONE": "(206)252-9200", "WEBSITE": "http://madisonms.seattleschools.org/", "XCOORD": -122.39027968000001, "YCOORD": 47.57298061, "SITE_USE": "Active", "PRJ_ENRLLMNT": null }, "geometry": { "type": "Point", "coordinates": [ -122.390279684949903, 47.572980613135464 ] } },
{ "type": "Feature", "properties": { "OBJECTID": 90, "TYPE": "Elementary", "SCHOOL": "SCHMITZ PARK", "ADDRESS": "5000 SW Spokane St", "SE_ANNO_CAD_DATA": null, "NAME": "West Seattle Elementary", "GRADE": "K-5", "CITY": "Seattle", "ZIP": "98116", "PHONE": "(206)252-9450", "WEBSITE": "http://westseattlees.seattleschools.org/", "XCOORD": -122.3967308, "YCOORD": 47.57268907, "SITE_USE": "Interim", "PRJ_ENRLLMNT": null }, "geometry": { "type": "Point", "coordinates": [ -122.396730798122476, 47.572689073892533 ] } },
{ "type": "Feature", "properties": { "OBJECTID": 91, "TYPE": "Elementary", "SCHOOL": "MCGILVRA ELEM", "ADDRESS": "1617 38th Ave E", "SE_ANNO_CAD_DATA": null, "NAME": "McGilvra", "GRADE": "K-5", "CITY": "Seattle", "ZIP": "98112", "PHONE": "(206)252-3160", "WEBSITE": "http://mcgilvraes.seattleschools.org/", "XCOORD": -122.28483179, "YCOORD": 47.63407775, "SITE_USE": "Active", "PRJ_ENRLLMNT": null }, "geometry": { "type": "Point", "coordinates": [ -122.284831792036755, 47.63407775044972 ] } },
{ "type": "Feature", "properties": { "OBJECTID": 92, "TYPE": "Elementary", "SCHOOL": "DECATUR BLDG/DS-2", "ADDRESS": "7711 43rd Ave NE", "SE_ANNO_CAD_DATA": null, "NAME": "Decatur", "GRADE": "1-5", "CITY": "Seattle", "ZIP": "98115", "PHONE": "(206)252-3230", "WEBSITE": "https://decatures.seattleschools.org/", "XCOORD": -122.28260879, "YCOORD": 47.68570761, "SITE_USE": "Active", "PRJ_ENRLLMNT": null }, "geometry": { "type": "Point", "coordinates": [ -122.282608788978067, 47.685707610160378 ] } },
{ "type": "Feature", "properties": { "OBJECTID": 93, "TYPE": "Option Elementary", "SCHOOL": "MONROE BLDG", "ADDRESS": "1810 NW 65th St", "SE_ANNO_CAD_DATA": null, "NAME": "Salmon Bay K-8", "GRADE": "K-8", "CITY": "Seattle", "ZIP": "98117", "PHONE": "(206)252-1720", "WEBSITE": "http://salmonbayk8.seattleschools.org/", "XCOORD": -122.38051208, "YCOORD": 47.67629741, "SITE_USE": "Active", "PRJ_ENRLLMNT": null }, "geometry": { "type": "Point", "coordinates": [ -122.380512075997345, 47.676297410711975 ] } },
{ "type": "Feature", "properties": { "OBJECTID": 94, "TYPE": "High School", "SCHOOL": "WEST SEATTLE HIGH SCHOOL", "ADDRESS": "3000 California Ave SW", "SE_ANNO_CAD_DATA": null, "NAME": "West Seattle High", "GRADE": "9-12", "CITY": "Seattle", "ZIP": "98116", "PHONE": "(206)252-8800", "WEBSITE": "http://westseattlehs.seattleschools.org/", "XCOORD": -122.38459097, "YCOORD": 47.57677968, "SITE_USE": "Active", "PRJ_ENRLLMNT": null }, "geometry": { "type": "Point", "coordinates": [ -122.384590967812741, 47.57677968231782 ] } },
{ "type": "Feature", "properties": { "OBJECTID": 95, "TYPE": "Elementary", "SCHOOL": "ADAMS ELEM", "ADDRESS": "6110 28th Ave NW", "SE_ANNO_CAD_DATA": null, "NAME": "Adams", "GRADE": "K-5", "CITY": "Seattle", "ZIP": "98107", "PHONE": "(206)252-1300", "WEBSITE": "http://adamses.seattleschools.org/", "XCOORD": -122.3915196, "YCOORD": 47.67363215, "SITE_USE": "Active", "PRJ_ENRLLMNT": null }, "geometry": { "type": "Point", "coordinates": [ -122.391519601725292, 47.673632144946858 ] } },
{ "type": "Feature", "properties": { "OBJECTID": 96, "TYPE": "Option High School", "SCHOOL": "SEATTLE CENTER â€“ CENTER HOUSE", "ADDRESS": "305 Harrison St", "SE_ANNO_CAD_DATA": null, "NAME": "The Center School", "GRADE": "9-12", "CITY": "Seattle", "ZIP": "98109", "PHONE": "(206)252-9850", "WEBSITE": "http://centerhs.seattleschools.org/", "XCOORD": -122.35396682, "YCOORD": 47.62207365, "SITE_USE": "Active", "PRJ_ENRLLMNT": null }, "geometry": { "type": "Point", "coordinates": [ -122.353966818662926, 47.622073645382898 ] } },
{ "type": "Feature", "properties": { "OBJECTID": 98, "TYPE": "Elementary", "SCHOOL": "MADRONA", "ADDRESS": "1121 33rd Ave", "SE_ANNO_CAD_DATA": null, "NAME": "Madrona", "GRADE": "K-5", "CITY": "Seattle", "ZIP": "98122", "PHONE": "(206)252-3100", "WEBSITE": "http://madronak8.seattleschools.org/", "XCOORD": -122.29086891, "YCOORD": 47.61223678, "SITE_USE": "Active", "PRJ_ENRLLMNT": null }, "geometry": { "type": "Point", "coordinates": [ -122.290868905000821, 47.612236775301199 ] } },
{ "type": "Feature", "properties": { "OBJECTID": 99, "TYPE": "Service School", "SCHOOL": "JOHN MARSHALL", "ADDRESS": "520 NE Ravenna Blvd", "SE_ANNO_CAD_DATA": null, "NAME": "Cascade PPP - Interim", "GRADE": "K-5", "CITY": "Seattle", "ZIP": "98115", "PHONE": "(206)743-3900", "WEBSITE": "https://cppp.seattleschools.org", "XCOORD": -122.32231535, "YCOORD": 47.67724814, "SITE_USE": "Interim", "PRJ_ENRLLMNT": null }, "geometry": { "type": "Point", "coordinates": [ -122.322315348241446, 47.677248142266805 ] } },
{ "type": "Feature", "properties": { "OBJECTID": 100, "TYPE": "Middle School", "SCHOOL": "WILSON-PACIFIC", "ADDRESS": "1330 N 90th St", "SE_ANNO_CAD_DATA": null, "NAME": "Robert Eagle Staff", "GRADE": "6-8", "CITY": "Seattle", "ZIP": "98103", "PHONE": "(206)413-2300", "WEBSITE": "http://eaglestaffms.seattleschools.org/", "XCOORD": -122.34112109, "YCOORD": 47.69486284, "SITE_USE": "Active", "PRJ_ENRLLMNT": null }, "geometry": { "type": "Point", "coordinates": [ -122.341121093759043, 47.69486284230269 ] } },
{ "type": "Feature", "properties": { "OBJECTID": 101, "TYPE": "Elementary", "SCHOOL": "AFRICAN AMERICAN ACADEMY", "ADDRESS": "8311 Beacon Ave S", "SE_ANNO_CAD_DATA": null, "NAME": "Rising Star", "GRADE": "K-5", "CITY": "Seattle", "ZIP": "98118", "PHONE": "(206)252-7500", "WEBSITE": "https://risingstares.seattleschools.org/", "XCOORD": -122.28903551000001, "YCOORD": 47.52915163, "SITE_USE": "Active", "PRJ_ENRLLMNT": null }, "geometry": { "type": "Point", "coordinates": [ -122.289035507289896, 47.529151629307869 ] } },
{ "type": "Feature", "properties": { "OBJECTID": 102, "TYPE": "Elementary", "SCHOOL": "ARBOR HEIGHTS", "ADDRESS": "3701 SW 104th St", "SE_ANNO_CAD_DATA": null, "NAME": "Arbor Heights", "GRADE": "K-5", "CITY": "Seattle", "ZIP": "98146", "PHONE": "(206)252-9250", "WEBSITE": "http://arborheightses.seattleschools.org/", "XCOORD": -122.37758781, "YCOORD": 47.50970036, "SITE_USE": "Active", "PRJ_ENRLLMNT": null }, "geometry": { "type": "Point", "coordinates": [ -122.377587813407487, 47.509700360656957 ] } },
{ "type": "Feature", "properties": { "OBJECTID": 103, "TYPE": "High School", "SCHOOL": "ROOSEVELT HIGH SCHOOL", "ADDRESS": "1410 NE 66th St", "SE_ANNO_CAD_DATA": null, "NAME": "Roosevelt", "GRADE": "9-12", "CITY": "Seattle", "ZIP": "98115", "PHONE": "(206)252-4810", "WEBSITE": "http://roosevelths.seattleschools.org/", "XCOORD": -122.31280953, "YCOORD": 47.67723139, "SITE_USE": "Active", "PRJ_ENRLLMNT": null }, "geometry": { "type": "Point", "coordinates": [ -122.312809534297926, 47.677231393255425 ] } },
{ "type": "Feature", "properties": { "OBJECTID": 104, "TYPE": "Elementary", "SCHOOL": "WEST WOODLAND ELEM", "ADDRESS": "5601 4th Ave NW", "SE_ANNO_CAD_DATA": null, "NAME": "West Woodland", "GRADE": "K-5", "CITY": "Seattle", "ZIP": "98107", "PHONE": "(206)252-1600", "WEBSITE": "http://westwoodlandes.seattleschools.org/", "XCOORD": -122.36224678000001, "YCOORD": 47.6705993, "SITE_USE": "Active", "PRJ_ENRLLMNT": null }, "geometry": { "type": "Point", "coordinates": [ -122.362246781597591, 47.670599303694132 ] } },
{ "type": "Feature", "properties": { "OBJECTID": 105, "TYPE": "Option Elementary", "SCHOOL": "WHITWORTH ELEM", "ADDRESS": "5215 46th Ave S", "SE_ANNO_CAD_DATA": null, "NAME": "Orca K-8", "GRADE": "K-8", "CITY": "Seattle", "ZIP": "98118", "PHONE": "(206)252-6900", "WEBSITE": "http://orcak8.seattleschools.org/", "XCOORD": -122.27595642, "YCOORD": 47.55477873, "SITE_USE": "Active", "PRJ_ENRLLMNT": null }, "geometry": { "type": "Point", "coordinates": [ -122.275956418026453, 47.554778725663837 ] } },
{ "type": "Feature", "properties": { "OBJECTID": 106, "TYPE": "Elementary", "SCHOOL": "GENESEE HILL BLDG", "ADDRESS": "5013 SW Dakota St", "SE_ANNO_CAD_DATA": null, "NAME": "Genesee Hill", "GRADE": "K-5", "CITY": "Seattle", "ZIP": "98116", "PHONE": "(206)252-9700", "WEBSITE": "http://geneseehilles.seattleschools.org/", "XCOORD": -122.39688854000001, "YCOORD": 47.56549257, "SITE_USE": "Active", "PRJ_ENRLLMNT": null }, "geometry": { "type": "Point", "coordinates": [ -122.396888540608344, 47.565492568633104 ] } },
{ "type": "Feature", "properties": { "OBJECTID": 107, "TYPE": "Option Elementary", "SCHOOL": "COOPER BLDG", "ADDRESS": "1901 SW Genesee St", "SE_ANNO_CAD_DATA": null, "NAME": "Pathfinder K-8", "GRADE": "K-8", "CITY": "Seattle", "ZIP": "98106", "PHONE": "(206)252-9710", "WEBSITE": "http://pathfinderk8.seattleschools.org/", "XCOORD": -122.35799712, "YCOORD": 47.56360479, "SITE_USE": "Active", "PRJ_ENRLLMNT": null }, "geometry": { "type": "Point", "coordinates": [ -122.357997123375512, 47.563604784708865 ] } },
{ "type": "Feature", "properties": { "OBJECTID": 108, "TYPE": "Option Elementary", "SCHOOL": "PINEHURST", "ADDRESS": "11530 12th Ave NE", "SE_ANNO_CAD_DATA": null, "NAME": "Hazel Wolf K-8", "GRADE": "K-8", "CITY": "Seattle", "ZIP": "98125", "PHONE": "(206)252-4610", "WEBSITE": "http://hazelwolfk8.seattleschools.org/", "XCOORD": -122.31465834, "YCOORD": 47.71343023, "SITE_USE": "Active", "PRJ_ENRLLMNT": null }, "geometry": { "type": "Point", "coordinates": [ -122.314658339084673, 47.713430231417391 ] } },
{ "type": "Feature", "properties": { "OBJECTID": 110, "TYPE": "Middle School", "SCHOOL": "MCCLURE MIDDLE SCHOOL", "ADDRESS": "1915 1st Ave W", "SE_ANNO_CAD_DATA": null, "NAME": "McClure", "GRADE": "6-8", "CITY": "Seattle", "ZIP": "98119", "PHONE": "(206)252-1900", "WEBSITE": "http://mcclurems.seattleschools.org/", "XCOORD": -122.35895523000001, "YCOORD": 47.63682628, "SITE_USE": "Active", "PRJ_ENRLLMNT": null }, "geometry": { "type": "Point", "coordinates": [ -122.358955231109519, 47.636826283948004 ] } },
{ "type": "Feature", "properties": { "OBJECTID": 111, "TYPE": "Elementary", "SCHOOL": "LAWTON ELEM", "ADDRESS": "4000 27th Ave W", "SE_ANNO_CAD_DATA": null, "NAME": "Lawton", "GRADE": "K-5", "CITY": "Seattle", "ZIP": "98199", "PHONE": "(206)252-2130", "WEBSITE": "http://lawtones.seattleschools.org/", "XCOORD": -122.39047452, "YCOORD": 47.65671241, "SITE_USE": "Active", "PRJ_ENRLLMNT": null }, "geometry": { "type": "Point", "coordinates": [ -122.390474520374028, 47.65671240511216 ] } },
{ "type": "Feature", "properties": { "OBJECTID": 112, "TYPE": "High School", "SCHOOL": "RAINIER BEACH HIGH SCHOOL", "ADDRESS": "8815 Seward Park Ave S", "SE_ANNO_CAD_DATA": null, "NAME": "Rainier Beach", "GRADE": "9-12", "CITY": "Seattle", "ZIP": "98118", "PHONE": "(206)252-6350", "WEBSITE": "http://rainierbeachhs.seattleschools.org", "XCOORD": -122.26585898, "YCOORD": 47.52407077, "SITE_USE": "Active", "PRJ_ENRLLMNT": null }, "geometry": { "type": "Point", "coordinates": [ -122.265858983283962, 47.524070764672032 ] } },
{ "type": "Feature", "properties": { "OBJECTID": 113, "TYPE": "Elementary", "SCHOOL": "GREENLAKE ELEM", "ADDRESS": "2400 N 65th St", "SE_ANNO_CAD_DATA": null, "NAME": "Green Lake", "GRADE": "K-5", "CITY": "Seattle", "ZIP": "98103", "PHONE": "(206)252-5320", "WEBSITE": "http://greenlakees.seattleschools.org/", "XCOORD": -122.32849786, "YCOORD": 47.67630161, "SITE_USE": "Active", "PRJ_ENRLLMNT": null }, "geometry": { "type": "Point", "coordinates": [ -122.328497858212202, 47.676301609058562 ] } },
{ "type": "Feature", "properties": { "OBJECTID": 114, "TYPE": "Elementary", "SCHOOL": "HAY ELEM", "ADDRESS": "201 Garfield St", "SE_ANNO_CAD_DATA": null, "NAME": "Hay", "GRADE": "K-5", "CITY": "Seattle", "ZIP": "98109", "PHONE": "(206)252-2100", "WEBSITE": "http://hayes.seattleschools.org/", "XCOORD": -122.35171658, "YCOORD": 47.63289848, "SITE_USE": "Active", "PRJ_ENRLLMNT": null }, "geometry": { "type": "Point", "coordinates": [ -122.351716580058863, 47.63289848357708 ] } },
{ "type": "Feature", "properties": { "OBJECTID": 115, "TYPE": "Elementary", "SCHOOL": "SANISLO ELEM", "ADDRESS": "1812 SW Myrtle St", "SE_ANNO_CAD_DATA": null, "NAME": "Sanislo", "GRADE": "K-5", "CITY": "Seattle", "ZIP": "98106", "PHONE": "(206)252-8380", "WEBSITE": "http://sanisloes.seattleschools.org/", "XCOORD": -122.35865808, "YCOORD": 47.53960839, "SITE_USE": "Active", "PRJ_ENRLLMNT": null }, "geometry": { "type": "Point", "coordinates": [ -122.358658082288315, 47.539608390153305 ] } },
{ "type": "Feature", "properties": { "OBJECTID": 117, "TYPE": "Elementary", "SCHOOL": "VIEW RIDGE ELEM", "ADDRESS": "7047 50th Ave NE", "SE_ANNO_CAD_DATA": null, "NAME": "View Ridge", "GRADE": "K-5", "CITY": "Seattle", "ZIP": "98115", "PHONE": "(206)252-5600", "WEBSITE": "http://viewridgees.seattleschools.org/", "XCOORD": -122.27533217, "YCOORD": 47.68068711, "SITE_USE": "Active", "PRJ_ENRLLMNT": null }, "geometry": { "type": "Point", "coordinates": [ -122.275332169000805, 47.680687105591048 ] } },
{ "type": "Feature", "properties": { "OBJECTID": 118, "TYPE": "Option Elementary", "SCHOOL": "SEWARD BLDG", "ADDRESS": "2500  Franklin Ave E", "SE_ANNO_CAD_DATA": null, "NAME": "TOPS K-8", "GRADE": "K-8", "CITY": "Seattle", "ZIP": "98102", "PHONE": "(206)252-3510", "WEBSITE": "http://topsk8.seattleschools.org/", "XCOORD": -122.32417847000001, "YCOORD": 47.64228686, "SITE_USE": "Active", "PRJ_ENRLLMNT": null }, "geometry": { "type": "Point", "coordinates": [ -122.324178472284842, 47.642286857181873 ] } }
]
}
